[
  {"code":"ATL","name":"Hartsfield–Jackson Atlanta","lat":33.6407,"lon":-84.4277},
  {"code":"LAX","name":"Los Angeles International","lat":33.9425,"lon":-118.4081},
  {"code":"ORD","name":"O'Hare International","lat":41.9742,"lon":-87.9073},
  {"code":"DFW","name":"Dallas/Fort Worth International","lat":32.8998,"lon":-97.0403},
  {"code":"DEN","name":"Denver International","lat":39.8561,"lon":-104.6737},
  {"code":"JFK","name":"John F. Kennedy International","lat":40.6413,"lon":-73.7781},
  {"code":"SFO","name":"San Francisco International","lat":37.6213,"lon":-122.379},
  {"code":"SEA","name":"Seattle–Tacoma International","lat":47.4502,"lon":-122.3088},
  {"code":"LAS","name":"Harry Reid International","lat":36.0840,"lon":-115.1537},
  {"code":"MCO","name":"Orlando International","lat":28.4312,"lon":-81.3081},
  {"code":"MIA","name":"Miami International","lat":25.7959,"lon":-80.2870},
  {"code":"PHX","name":"Phoenix Sky Harbor","lat":33.4373,"lon":-112.0078},
  {"code":"IAH","name":"George Bush Intercontinental","lat":29.9902,"lon":-95.3368},
  {"code":"EWR","name":"Newark Liberty International","lat":40.6895,"lon":-74.1745},
  {"code":"BOS","name":"Logan International","lat":42.3656,"lon":-71.0096},
  {"code":"MSP","name":"Minneapolis–Saint Paul Intl","lat":44.8848,"lon":-93.2223},
  {"code":"DTW","name":"Detroit Metropolitan Wayne County","lat":42.2162,"lon":-83.3554},
  {"code":"FLL","name":"Fort Lauderdale–Hollywood Intl","lat":26.0726,"lon":-80.1527},
  {"code":"PHL","name":"Philadelphia International","lat":39.8729,"lon":-75.2437},
  {"code":"LGA","name":"LaGuardia Airport","lat":40.7769,"lon":-73.8740},
  {"code":"BWI","name":"Baltimore/Washington International","lat":39.1754,"lon":-76.6682},
  {"code":"DCA","name":"Ronald Reagan Washington National","lat":38.8521,"lon":-77.0377},
  {"code":"IAD","name":"Dulles International","lat":38.9531,"lon":-77.4565},
  {"code":"MDW","name":"Chicago Midway International","lat":41.7868,"lon":-87.7522},
  {"code":"TPA","name":"Tampa International","lat":27.9755,"lon":-82.5332},
  {"code":"PDX","name":"Portland International","lat":45.5898,"lon":-122.5951},
  {"code":"SLC","name":"Salt Lake City International","lat":40.7884,"lon":-111.9778},
  {"code":"HNL","name":"Daniel K. Inouye International","lat":21.3245,"lon":-157.9251},
  {"code":"ANC","name":"Ted Stevens Anchorage International","lat":61.1743,"lon":-149.9963},
  {"code":"OAK","name":"Oakland Metropolitan International","lat":37.7213,"lon":-122.2208},
  {"code":"SAN","name":"San Diego International","lat":32.7338,"lon":-117.1933},
  {"code":"SJC","name":"Norman Y. Mineta San José Intl","lat":37.3626,"lon":-121.9290},
  {"code":"SMF","name":"Sacramento International","lat":38.6954,"lon":-121.5908},
  {"code":"STL","name":"St. Louis Lambert International","lat":38.7487,"lon":-90.3700},
  {"code":"MCI","name":"Kansas City International","lat":39.2976,"lon":-94.7139},
  {"code":"CLE","name":"Cleveland Hopkins International","lat":41.4117,"lon":-81.8498},
  {"code":"PIT","name":"Pittsburgh International","lat":40.4915,"lon":-80.2329},
  {"code":"CMH","name":"John Glenn Columbus International","lat":39.9980,"lon":-82.8919},
  {"code":"IND","name":"Indianapolis International","lat":39.7173,"lon":-86.2944},
  {"code":"MKE","name":"General Mitchell International","lat":42.9472,"lon":-87.8966},
  {"code":"BNA","name":"Nashville International","lat":36.1245,"lon":-86.6782},
  {"code":"MEM","name":"Memphis International","lat":35.0424,"lon":-89.9767},
  {"code":"CVG","name":"Cincinnati/Northern Kentucky Intl","lat":39.0489,"lon":-84.6678},
  {"code":"RDU","name":"Raleigh–Durham International","lat":35.8776,"lon":-78.7875},
  {"code":"CLT","name":"Charlotte Douglas International","lat":35.2141,"lon":-80.9431},
  {"code":"CHS","name":"Charleston International","lat":32.8986,"lon":-80.0405},
  {"code":"JAX","name":"Jacksonville International","lat":30.4941,"lon":-81.6879},
  {"code":"SAT","name":"San Antonio International","lat":29.5337,"lon":-98.4698},
  {"code":"AUS","name":"Austin–Bergstrom International","lat":30.1975,"lon":-97.6664},
  {"code":"DAL","name":"Dallas Love Field","lat":32.8471,"lon":-96.8518},
  {"code":"HOU","name":"William P. Hobby Airport","lat":29.6454,"lon":-95.2789},
  {"code":"ABQ","name":"Albuquerque International Sunport","lat":35.0402,"lon":-106.6091},
  {"code":"ELP","name":"El Paso International","lat":31.8072,"lon":-106.3779},
  {"code":"TUC","name":"Tucson International","lat":32.1161,"lon":-110.9410},
  {"code":"OGG","name":"Kahului Airport","lat":20.8986,"lon":-156.4305},
  {"code":"KOA","name":"Ellison Onizuka Kona International","lat":19.7388,"lon":-156.0456},
  {"code":"LIH","name":"Lihue Airport","lat":21.9760,"lon":-159.3388},
  {"code":"ITO","name":"Hilo International","lat":19.7213,"lon":-155.0480},
  {"code":"FAI","name":"Fairbanks International","lat":64.8151,"lon":-147.8561},
  {"code":"JNU","name":"Juneau International","lat":58.3550,"lon":-134.5763},
  {"code":"BLI","name":"Bellingham International","lat":48.7928,"lon":-122.5375},
  {"code":"BOI","name":"Boise Airport","lat":43.5644,"lon":-116.2228},
  {"code":"GEG","name":"Spokane International","lat":47.6199,"lon":-117.5338},
  {"code":"BZN","name":"Bozeman Yellowstone International","lat":45.7775,"lon":-111.1530},
  {"code":"MSO","name":"Missoula Montana Airport","lat":46.9163,"lon":-114.0906},
  {"code":"RNO","name":"Reno–Tahoe International","lat":39.4991,"lon":-119.7681},
  {"code":"LGB","name":"Long Beach Airport","lat":33.8177,"lon":-118.1516},
  {"code":"BUR","name":"Hollywood Burbank Airport","lat":34.2007,"lon":-118.3585},
  {"code":"ONT","name":"Ontario International","lat":34.0560,"lon":-117.6012},
  {"code":"SBA","name":"Santa Barbara Airport","lat":34.4262,"lon":-119.8407},
  {"code":"SNA","name":"John Wayne Airport","lat":33.6762,"lon":-117.8675},
  {"code":"MRY","name":"Monterey Regional Airport","lat":36.5870,"lon":-121.8430},
  {"code":"FAT","name":"Fresno Yosemite International","lat":36.7762,"lon":-119.7182},
  {"code":"BFL","name":"Meadows Field Airport","lat":35.4336,"lon":-119.0567},
  {"code":"GJT","name":"Grand Junction Regional","lat":39.1224,"lon":-108.5267},
  {"code":"PUB","name":"Pueblo Memorial Airport","lat":38.2891,"lon":-104.4966},
  {"code":"COS","name":"Colorado Springs Airport","lat":38.8059,"lon":-104.7008},
  {"code":"DRO","name":"Durango–La Plata County Airport","lat":37.1515,"lon":-107.7538},
  {"code":"GUC","name":"Gunnison–Crested Butte Regional","lat":38.5339,"lon":-106.9330},
  {"code":"HDN","name":"Yampa Valley Regional Airport","lat":40.4812,"lon":-107.2218},
  {"code":"ASE","name":"Aspen–Pitkin County Airport","lat":39.2232,"lon":-106.8688},
  {"code":"EGE","name":"Eagle County Regional Airport","lat":39.6426,"lon":-106.9177},
  {"code":"FSD","name":"Sioux Falls Regional Airport","lat":43.5820,"lon":-96.7419},
  {"code":"RAP","name":"Rapid City Regional Airport","lat":44.0453,"lon":-103.0574},
  {"code":"BIS","name":"Bismarck Airport","lat":46.7727,"lon":-100.7467},
  {"code":"FAR","name":"Hector International Airport","lat":46.9207,"lon":-96.8158},
  {"code":"GFK","name":"Grand Forks International","lat":47.9493,"lon":-97.1761},
  {"code":"MSN","name":"Dane County Regional Airport","lat":43.1399,"lon":-89.3375},
  {"code":"GRR","name":"Gerald R. Ford International","lat":42.8808,"lon":-85.5228},
  {"code":"LAN","name":"Capital Region International","lat":42.7787,"lon":-84.5874},
  {"code":"FNT","name":"Bishop International Airport","lat":42.9655,"lon":-83.7436},
  {"code":"TVC","name":"Cherry Capital Airport","lat":44.7414,"lon":-85.5822},
  {"code":"TOL","name":"Toledo Express Airport","lat":41.5868,"lon":-83.8078},
  {"code":"DAY","name":"Dayton International Airport","lat":39.9024,"lon":-84.2194},
  {"code":"SBN","name":"South Bend International","lat":41.7087,"lon":-86.3173},
  {"code":"FWA","name":"Fort Wayne International","lat":40.9785,"lon":-85.1951},
  {"code":"EVV","name":"Evansville Regional Airport","lat":38.0369,"lon":-87.5324},
  {"code":"SDF","name":"Louisville Muhammad Ali Intl","lat":38.1744,"lon":-85.7360},
  {"code":"LEX","name":"Blue Grass Airport","lat":38.0365,"lon":-84.6059},
  {"code":"GSP","name":"Greenville–Spartanburg Intl","lat":34.8957,"lon":-82.2190},
  {"code":"CAE","name":"Columbia Metropolitan Airport","lat":33.9389,"lon":-81.1195},
  {"code":"SAV","name":"Savannah/Hilton Head Intl","lat":32.1277,"lon":-81.2021},
  {"code":"PNS","name":"Pensacola International","lat":30.4734,"lon":-87.1866},
  {"code":"MOB","name":"Mobile Regional Airport","lat":30.6913,"lon":-88.2428},
  {"code":"BHM","name":"Birmingham–Shuttlesworth Intl","lat":33.5629,"lon":-86.7535},
  {"code":"HSV","name":"Huntsville International","lat":34.6372,"lon":-86.7751},
  {"code":"MSY","name":"Louis Armstrong New Orleans Intl","lat":29.9934,"lon":-90.2580},
  {"code":"BTR","name":"Baton Rouge Metropolitan Airport","lat":30.5332,"lon":-91.1496},
  {"code":"SHV","name":"Shreveport Regional Airport","lat":32.4466,"lon":-93.8256},
  {"code":"LIT","name":"Clinton National Airport","lat":34.7294,"lon":-92.2243},
  {"code":"TUL","name":"Tulsa International Airport","lat":36.1984,"lon":-95.8881},
  {"code":"OKC","name":"Will Rogers World Airport","lat":35.3931,"lon":-97.6007},
  {"code":"ICT","name":"Wichita Dwight D. Eisenhower Natl","lat":37.6499,"lon":-97.4331},
  {"code":"OMA","name":"Eppley Airfield","lat":41.3032,"lon":-95.8940},
  {"code":"LNK","name":"Lincoln Airport","lat":40.8510,"lon":-96.7592},
  {"code":"DSM","name":"Des Moines International","lat":41.5340,"lon":-93.6631},
  {"code":"MLI","name":"Quad City International Airport","lat":41.4485,"lon":-90.5075},
  {"code":"PIA","name":"General Wayne A. Downing Peoria Intl","lat":40.6642,"lon":-89.6933},
  {"code":"BMI","name":"Central Illinois Regional Airport","lat":40.4771,"lon":-88.9159},
  {"code":"CID","name":"The Eastern Iowa Airport","lat":41.8847,"lon":-91.7108},
  {"code":"DBQ","name":"Dubuque Regional Airport","lat":42.4020,"lon":-90.7095},
  {"code":"GRB","name":"Green Bay Austin Straubel Intl","lat":44.4851,"lon":-88.1296},
  {"code":"ATW","name":"Appleton International Airport","lat":44.2581,"lon":-88.5191},
  {"code":"DLH","name":"Duluth International Airport","lat":46.8421,"lon":-92.1936},
  {"code":"RST","name":"Rochester International Airport","lat":43.9083,"lon":-92.5001},
  {"code":"ABI","name":"Abilene Regional Airport","lat":32.4113,"lon":-99.6819},
  {"code":"LBB","name":"Lubbock Preston Smith Intl","lat":33.6636,"lon":-101.8228},
  {"code":"MAF","name":"Midland International Air and Space Port","lat":31.9425,"lon":-102.2019},
  {"code":"AMA","name":"Rick Husband Amarillo Intl","lat":35.2194,"lon":-101.7059},
  {"code":"LRD","name":"Laredo International Airport","lat":27.5438,"lon":-99.4615},
  {"code":"CRP","name":"Corpus Christi International","lat":27.7704,"lon":-97.5026},
  {"code":"MFE","name":"McAllen Miller International","lat":26.1758,"lon":-98.2386},
  {"code":"BRO","name":"South Padre Island Intl","lat":25.9068,"lon":-97.4259},
  {"code":"YYZ","name":"Toronto Pearson International","lat":43.6772,"lon":-79.6306},
  {"code":"YVR","name":"Vancouver International","lat":49.1967,"lon":-123.1815},
  {"code":"YYC","name":"Calgary International","lat":51.1315,"lon":-114.0106},
  {"code":"YEG","name":"Edmonton International","lat":53.3097,"lon":-113.5794},
  {"code":"YWG","name":"Winnipeg James Armstrong Richardson Intl","lat":49.9100,"lon":-97.2398},
  {"code":"YQB","name":"Québec City Jean Lesage Intl","lat":46.7911,"lon":-71.3933},
  {"code":"YUL","name":"Montréal–Trudeau International","lat":45.4706,"lon":-73.7408},
  {"code":"YHZ","name":"Halifax Robert L. Stanfield Intl","lat":44.8808,"lon":-63.5086},
  {"code":"YOW","name":"Ottawa Macdonald–Cartier Intl","lat":45.3225,"lon":-75.6692},
  {"code":"MEX","name":"Benito Juárez International","lat":19.4363,"lon":-99.0721},
  {"code":"GDL","name":"Don Miguel Hidalgo y Costilla Intl","lat":20.5218,"lon":-103.3109},
  {"code":"MTY","name":"Monterrey General Mariano Escobedo Intl","lat":25.7785,"lon":-100.1067},
  {"code":"CUN","name":"Cancún International","lat":21.0365,"lon":-86.8770}
]
